,City,Lat,Lng,Max Temp,Humidity,Cloudiness,Wind Speed,Country,Date
0,adamstown,-25.066,-130.1015,18.83,66,95,8.71,PN,1721591585
1,yaren,-0.5472,166.916,29.12,75,7,7.89,NR,1721591585
2,port-aux-francais,-49.35,70.2167,3.99,97,100,10.47,TF,1721591585
3,waitangi,-43.9535,-176.5597,9.9,99,100,4.47,NZ,1721591585
4,port augusta,-32.5,137.7667,8.31,50,0,3.6,AU,1721591585
5,saipan,15.1355,145.701,28.39,89,40,2.06,MP,1721591301
6,puerto ayora,-0.7393,-90.3518,25.98,92,54,4.02,EC,1721591586
7,fort bragg,35.139,-79.006,32.47,63,40,3.09,US,1721591586
8,yellowknife,62.456,-114.3525,26.34,40,75,3.09,CA,1721591586
9,belyayevka,51.3974,56.4096,21.29,78,100,4.65,RU,1721591586
10,geraldton,-28.7667,114.6,8.23,81,0,6.69,AU,1721591587
11,invercargill,-46.4,168.35,7.23,86,100,2.68,NZ,1721591441
12,quellon,-43.1167,-73.6167,10.8,77,10,0.87,CL,1721591587
13,uturoa,-16.7333,-151.4333,24.63,59,99,9.75,PF,1721591587
14,albany,42.6001,-73.9662,29.57,54,94,0.89,US,1721591543
15,puerto natales,-51.7236,-72.4875,10.25,81,100,15.95,CL,1721591588
16,edinburgh of the seven seas,-37.0676,-12.3116,10.24,61,97,13.54,SH,1721591588
17,tazovsky,67.4667,78.7,5.57,73,11,3.39,RU,1721591588
18,blackmans bay,-43.0167,147.3167,10.41,87,100,0.45,AU,1721591588
19,borogontsy,62.6683,131.1683,15.11,86,3,1.76,RU,1721591588
20,vilyuchinsk,52.9306,158.4028,10.15,79,96,0.53,RU,1721591589
21,petropavlovsk-kamchatsky,53.0452,158.6483,9.33,100,100,1.0,RU,1721591589
22,pechora,65.1472,57.2244,11.67,62,100,2.56,RU,1721591589
23,cidade velha,14.9167,-23.6167,27.26,74,40,2.57,CV,1721591590
24,hasaki,35.7333,140.8333,25.22,95,78,4.5,JP,1721591590
25,sinabang,2.4803,96.3801,27.14,81,100,2.12,ID,1721591590
26,soledad de doblado,19.05,-96.4167,29.47,88,99,0.39,MX,1721591590
27,veracruz,19.3333,-96.6667,25.65,82,94,0.77,MX,1721591590
28,kiunga,-6.1219,141.2906,21.99,99,100,0.76,PG,1721591591
29,west island,-12.1568,96.8225,25.99,89,75,7.2,CC,1721591591
30,thompson,55.7435,-97.8558,27.09,50,75,1.03,CA,1721591584
31,port mathurin,-19.6833,63.4167,22.74,69,9,6.12,MU,1721591591
32,azare,11.6765,10.1948,24.56,81,98,2.94,NG,1721591591
33,la'ie,21.6477,-157.9253,27.98,75,100,4.92,US,1721591592
34,kijang,35.2442,129.2139,26.85,95,5,3.44,KR,1721591592
35,bethel,41.3712,-73.414,30.5,51,0,4.12,US,1721591592
36,mcfarland,35.678,-119.2293,36.94,17,0,2.06,US,1721591592
37,utrik,11.2278,169.8474,27.92,81,86,7.28,MH,1721591592
38,lushoto,-4.7833,38.2833,12.72,96,94,1.68,TZ,1721591593
39,motueka,-41.1333,173.0167,9.5,86,100,2.11,NZ,1721591593
40,kapuskasing,49.4169,-82.4331,21.05,49,100,6.17,CA,1721591593
41,mejit,10.2753,170.8646,28.1,79,100,6.56,MH,1721591593
42,bredasdorp,-34.5322,20.0403,6.94,86,0,1.06,ZA,1721591593
43,isafjordur,66.0755,-23.124,9.02,76,75,6.69,IS,1721591594
44,tiksi,71.6872,128.8694,4.41,88,100,1.97,RU,1721591594
45,avarua,-21.2078,-159.775,25.03,57,40,6.69,CK,1721591592
46,iqaluit,63.7506,-68.5145,17.85,45,20,3.09,CA,1721591594
47,berriane,32.8265,3.7669,40.45,12,100,5.96,DZ,1721591594
48,margaret river,-33.95,115.0667,15.83,76,49,9.88,AU,1721591595
49,bikaner,28.0167,73.3,35.92,46,100,7.82,IN,1721591595
50,apostolove,47.66,33.7137,26.27,25,100,2.82,UA,1721591595
51,newman,37.3138,-121.0208,33.13,14,0,0.26,US,1721591595
52,olonkinbyen,70.9221,-8.7187,5.86,93,100,8.15,SJ,1721591595
53,port alfred,-33.5906,26.891,12.64,70,4,2.68,ZA,1721591596
54,akureyri,65.6835,-18.0878,10.96,71,75,5.14,IS,1721591596
55,katsuren-haebaru,26.3369,127.8719,30.05,85,20,3.6,JP,1721591596
56,mawu,34.4307,104.9176,16.56,96,100,1.6,CN,1721591597
57,aykhal,66.0,111.5,13.32,93,100,7.11,RU,1721591597
58,susuman,62.7833,148.1667,11.99,93,100,0.74,RU,1721591597
59,turpan,42.9333,89.1667,35.52,23,84,2.25,CN,1721591597
60,novyy urengoy,66.0833,76.6333,9.38,62,0,3.68,RU,1721591597
61,bardai,11.65,7.2333,22.2,90,100,2.66,NG,1721591598
62,kosh-agach,50.0,88.6667,11.76,78,100,3.5,RU,1721591598
63,nakamura,32.9833,132.9333,25.35,98,5,1.03,JP,1721591598
64,bonny,4.4522,7.1681,25.49,82,63,3.77,NG,1721591598
65,kingston,17.997,-76.7936,33.53,70,20,8.75,JM,1721591573
66,rio grande,-32.035,-52.0986,19.06,80,100,1.82,BR,1721591599
67,ribeira grande,38.5167,-28.7,25.22,78,20,3.6,PT,1721591599
68,egilsstadir,65.2653,-14.3948,10.95,71,100,2.06,IS,1721591599
69,sao gabriel,-30.3364,-54.32,21.06,76,100,1.13,BR,1721591599
70,charles city,43.0664,-92.6724,27.49,68,40,2.06,US,1721591599
71,boca suno,-0.7167,-77.1333,24.77,64,86,0.67,EC,1721591600
72,kajuru,10.3192,7.6892,21.13,96,100,1.99,NG,1721591600
73,port elizabeth,-33.918,25.5701,8.94,87,0,2.06,ZA,1721591600
74,khandyga,62.6667,135.6,12.85,95,74,0.52,RU,1721591600
75,chonchi,-42.6128,-73.8092,11.56,76,5,0.36,CL,1721591601
76,verkhnevilyuysk,63.4453,120.3167,17.23,60,100,3.33,RU,1721591601
77,grytviken,-54.2811,-36.5092,0.79,89,47,4.37,GS,1721591601
78,vernon,50.2581,-119.2691,33.74,24,0,1.54,CA,1721591601
79,panama city beach,30.1766,-85.8055,32.25,71,80,1.34,US,1721591601
80,bilgi,16.35,75.6167,23.19,87,100,7.6,IN,1721591602
81,devrekani,41.603,33.8392,18.33,77,1,0.99,TR,1721591602
82,alofi,-19.0595,-169.9187,24.94,73,75,3.6,NU,1721591602
83,mukalla,14.5425,49.1242,28.72,73,100,3.71,YE,1721591602
84,erenhot,43.6475,111.9767,24.32,58,19,4.97,CN,1721591602
85,kostomuksha,64.571,30.5767,13.0,74,27,2.32,RU,1721591603
86,constantia,44.1833,28.65,26.38,77,95,1.2,RO,1721591603
87,tofol,5.3248,163.0078,29.0,75,93,6.02,FM,1721591603
88,pariaman,-0.619,100.12,26.03,87,79,2.39,ID,1721591603
89,jamestown,42.097,-79.2353,26.77,50,0,2.57,US,1721591603
90,oliver,49.1831,-119.5524,32.95,27,0,0.51,CA,1721591604
91,wynyard,-41.0,145.7167,11.81,93,100,3.41,AU,1721591604
92,tolanaro,-25.0319,46.9987,19.04,94,20,0.0,MG,1721591604
93,las heras,-46.5419,-68.9359,7.83,76,15,11.49,AR,1721591604
94,saint-joseph,-21.3667,55.6167,20.21,81,17,2.56,RE,1721591604
95,bhagwantnagar,26.2333,80.75,31.79,59,100,4.45,IN,1721591605
96,ilulissat,69.2167,-51.1,10.01,71,75,2.06,GL,1721591605
97,codrington,-38.2667,141.9667,12.0,91,97,6.64,AU,1721591605
98,talnakh,69.4865,88.3972,5.62,78,0,5.22,RU,1721591606
99,atafu village,-8.5421,-172.5159,28.47,75,44,9.09,TK,1721591606
100,guerrero negro,27.9769,-114.0611,27.92,56,100,4.74,MX,1721591403
101,vorgashor,67.5833,63.95,8.05,65,98,2.94,RU,1721591606
102,bukama,-9.2,25.85,25.09,31,0,1.26,CD,1721591607
103,kovernino,57.1253,43.8142,15.85,97,66,3.26,RU,1721591607
104,timbuktu,16.7735,-3.0074,35.63,31,98,3.82,ML,1721591607
105,kalmunai,7.4167,81.8167,27.34,78,18,2.81,LK,1721591607
106,inari,68.906,27.0288,22.11,61,90,2.5,FI,1721591607
107,gavrilov-yam,57.3018,39.8533,17.91,95,99,2.28,RU,1721591608
108,stanley,54.868,-1.6985,15.29,73,20,1.54,GB,1721591608
109,luderitz,-26.6481,15.1594,13.81,76,86,3.89,NA,1721591608
110,lebu,-37.6167,-73.65,10.42,62,5,2.59,CL,1721591608
111,benghazi,32.1167,20.0667,28.38,64,0,3.54,LY,1721591608
112,kirakira,-10.4544,161.9205,26.31,86,10,4.54,SB,1721591609
113,astrea,9.4983,-73.9759,37.46,38,0,0.79,CO,1721591609
114,souillac,-20.5167,57.5167,18.53,94,20,2.57,MU,1721591609
115,georgetown,5.4112,100.3354,28.97,84,20,1.54,MY,1721591609
116,kone,-21.0595,164.8658,16.13,84,10,1.51,NC,1721591609
117,sofifi,0.7349,127.576,25.57,83,100,1.9,ID,1721591610
118,arraial do cabo,-22.9661,-42.0278,22.98,64,0,3.6,BR,1721591610
119,hotan,37.0997,79.9269,30.22,25,98,5.17,CN,1721591610
120,san juan del sur,11.2529,-85.8705,31.12,79,40,2.06,NI,1721591610
121,kuqa,41.7278,82.9364,28.56,28,99,2.02,CN,1721591610
122,kargopol',61.5071,38.9456,13.26,71,7,2.27,RU,1721591611
123,wailua homesteads,22.0669,-159.378,28.24,74,75,6.17,US,1721591611
124,holualoa,19.6228,-155.9522,27.53,73,0,3.6,US,1721591401
125,kismayo,-0.3582,42.5454,24.52,78,96,7.17,SO,1721591611
126,eureka,40.8021,-124.1637,17.01,88,100,4.47,US,1721591611
127,magadan,59.5667,150.8,13.16,93,100,1.84,RU,1721591411
128,bilibino,68.0546,166.4372,10.94,87,100,2.03,RU,1721591612
129,jieshi,22.8134,115.8257,28.49,84,100,4.12,CN,1721591612
130,eraan,9.0629,117.7016,26.15,84,100,3.76,PH,1721591612
131,kapa'a,22.0752,-159.319,27.83,72,20,4.63,US,1721591613
132,keflavik,64.0049,-22.5624,10.95,81,75,10.29,IS,1721591613
133,mhamid,29.82,-5.72,39.82,9,0,2.53,MA,1721591613
134,whitehorse,60.7161,-135.0538,26.17,46,75,0.0,CA,1721591613
135,papatowai,-46.5619,169.4708,7.43,82,97,5.93,NZ,1721591614
136,haiku-pauwela,20.9219,-156.3051,28.45,63,20,5.36,US,1721591614
137,punta arenas,-53.15,-70.9167,7.06,81,100,15.95,CL,1721591614
138,san antonio de pale,-1.4014,5.6325,23.55,74,0,2.28,GQ,1721591614
139,enewetak,11.3474,162.3373,28.28,80,98,7.37,MH,1721591614
140,hami,42.8,93.45,30.57,24,47,8.6,CN,1721591615
141,happy valley-goose bay,53.3168,-60.3315,22.17,43,75,3.6,CA,1721591615
142,karagandy,49.8019,73.1021,14.97,78,12,2.22,KZ,1721591615
143,klyuchi,52.2667,79.1667,19.04,81,84,3.81,RU,1721591615
144,ushuaia,-54.8,-68.3,6.81,65,0,2.57,AR,1721591551
145,hermanus,-34.4187,19.2345,5.45,77,0,1.47,ZA,1721591616
146,puerto baquerizo moreno,-0.9,-89.6,24.55,73,40,9.26,EC,1721591616
147,pearsall,28.8922,-99.095,38.84,29,37,3.34,US,1721591616
148,sitka,57.0531,-135.33,15.94,77,100,3.09,US,1721591616
149,college,64.8569,-147.8028,23.03,54,0,0.45,US,1721591616
150,onega,63.9061,38.1404,13.24,66,9,3.16,RU,1721591617
151,cova figueira,14.8905,-24.2934,19.84,76,5,2.08,CV,1721591617
152,badger,64.8,-147.5333,22.98,52,0,0.0,US,1721591617
153,lasem,-6.6922,111.4527,23.83,79,87,3.15,ID,1721591617
154,jaciara,-15.9653,-54.9683,33.02,14,0,2.4,BR,1721591617
155,east london,-33.0153,27.9116,14.21,58,65,1.59,ZA,1721591618
156,urengoy,65.9667,78.3667,7.94,61,1,3.37,RU,1721591618
157,gargalianoi,37.0667,21.6333,27.34,73,0,2.47,GR,1721591618
158,udachny,66.4167,112.4,14.12,91,100,8.99,RU,1721591618
159,'ain el melh,34.8415,4.1638,31.88,15,7,7.59,DZ,1721591618
160,chernyshevskiy,63.0128,112.4714,14.89,97,79,2.16,RU,1721591619
161,manay,7.215,126.5397,24.67,88,100,3.75,PH,1721591619
162,thunder bay,48.4001,-89.3168,23.99,41,20,2.57,CA,1721591451
163,contramaestre,20.2978,-76.2414,36.21,40,80,1.8,CU,1721591619
164,tadine,-21.55,167.8833,18.99,76,6,3.77,NC,1721591619
165,taki,22.5861,88.9214,28.97,89,99,4.17,IN,1721591620
166,huinan,42.6225,126.2614,21.32,93,100,2.26,CN,1721591620
167,bubaque,11.2833,-15.8333,26.97,84,100,6.45,GW,1721591620
168,choibalsan,48.0667,114.5,19.78,78,100,4.24,MN,1721591620
169,bei'an,46.4398,126.2373,20.84,91,100,1.0,CN,1721591620
170,xuddur,4.1213,43.8894,23.25,66,100,8.63,SO,1721591621
171,belyy yar,53.6039,91.3903,17.94,94,40,3.0,RU,1721591621
172,guiuan,11.0333,125.7247,29.14,76,100,6.57,PH,1721591622
173,coahuayana de hidalgo,18.7,-103.6583,31.26,65,72,3.27,MX,1721591622
174,kerikeri,-35.2268,173.9474,12.87,84,75,3.87,NZ,1721591622
175,fougamou,-1.2154,10.5838,24.81,60,14,0.92,GA,1721591622
176,zuyevka,58.405,51.1335,12.73,65,6,3.5,RU,1721591622
177,umluj,25.0213,37.2685,31.17,60,11,2.52,SA,1721591623
178,malvan,16.0667,73.4667,27.09,85,100,9.12,IN,1721591623
179,ilam,26.9167,87.9167,22.85,93,100,1.24,NP,1721591623
180,santiago de cuba,20.0247,-75.8219,32.06,66,75,6.69,CU,1721591623
181,nar'yan-mar,67.6713,53.087,10.74,63,95,2.02,RU,1721591624
182,puerto ayacucho,5.6639,-67.6236,25.83,90,100,2.9,VE,1721591624
183,sihanoukville,10.6093,103.5296,25.97,100,100,1.54,KH,1721591624
184,siwa oasis,29.2041,25.5195,35.75,19,2,3.26,EG,1721591624
185,novaya ladoga,60.1025,32.3019,16.55,95,13,1.05,RU,1721591624
186,selkirk,50.1436,-96.8845,28.37,66,4,0.89,CA,1721591625
187,tanjungtiram,4.0613,98.3699,25.19,94,100,1.4,ID,1721591625
188,callao,-12.0667,-77.15,18.16,68,100,3.6,PE,1721591625
189,anadyr,64.75,177.4833,12.28,87,100,3.0,RU,1721591625
190,sinaloa de leyva,25.8333,-108.2333,36.15,38,0,3.18,MX,1721591625
191,kununurra,-15.7667,128.7333,13.99,51,71,0.0,AU,1721591626
192,afaahiti,-17.75,-149.2833,24.93,70,99,10.59,PF,1721591626
193,kribi,2.95,9.9167,24.31,86,83,2.63,CM,1721591626
194,ust-nera,64.5667,143.2,13.71,87,100,1.41,RU,1721591627
195,san patricio,28.017,-97.5169,34.93,52,53,4.62,US,1721591627
196,fort mcmurray,56.7268,-111.381,28.77,57,75,1.54,CA,1721591627
197,treasure island,27.7692,-82.769,35.16,62,0,2.06,US,1721591627
198,bodo,67.28,14.405,24.02,48,0,7.2,NO,1721591627
199,morondava,-20.2833,44.2833,21.81,72,0,4.72,MG,1721591628
200,lihue,21.9789,-159.3672,27.42,75,20,4.63,US,1721591628
201,bafra,41.5678,35.9069,23.51,84,0,1.58,TR,1721591628
202,porto novo,6.4965,2.6036,24.9,84,19,3.45,BJ,1721591628
203,hermosillo,29.0667,-110.9667,36.12,45,26,1.93,MX,1721591593
204,island harbour,50.724,-1.2758,19.07,74,6,1.79,GB,1721591629
205,mount isa,-20.7333,139.5,2.87,65,0,2.57,AU,1721591629
206,heers,50.75,5.3,21.64,89,40,1.54,BE,1721591630
207,oranjemund,-28.55,16.4333,12.57,87,100,5.03,NA,1721591630
208,massawa,15.6097,39.45,38.1,39,68,2.71,ER,1721591630
209,chortoq,41.0666,71.8553,27.97,27,100,2.63,UZ,1721591630
210,formosa do rio preto,-11.0483,-45.1931,29.46,24,26,3.87,BR,1721591630
211,mlada boleslav,50.4114,14.9032,24.88,52,43,2.36,CZ,1721591631
212,garforth,53.7917,-1.3807,18.17,60,66,0.45,GB,1721591631
213,veraval,20.9,70.3667,27.49,89,100,8.35,IN,1721591631
214,campbellton,48.0075,-66.6727,21.25,48,57,5.39,CA,1721591631
215,djambala,-2.5447,14.7533,26.68,36,100,1.05,CG,1721591632
216,sunne,59.8376,13.143,21.18,72,100,1.4,SE,1721591632
217,nouadhibou,20.931,-17.0347,22.36,80,16,7.37,MR,1721591632
218,karymskoye,51.6167,114.35,18.07,63,81,1.31,RU,1721591633
219,huicungo,-7.2833,-76.8,33.08,36,4,2.19,PE,1721591633
220,tindouf,27.6711,-8.1474,44.25,9,20,1.54,DZ,1721591633
221,toliara,-23.35,43.6667,19.35,80,0,4.2,MG,1721591633
222,suva,-18.1416,178.4415,19.71,100,20,2.06,FJ,1721591633
223,kodiak,57.79,-152.4072,15.73,77,75,4.63,US,1721591634
224,tukrah,32.5341,20.5791,27.71,69,0,1.17,LY,1721591634
225,puerto colombia,10.9878,-74.9547,32.05,71,100,5.9,CO,1721591634
226,carnarvon,-24.8667,113.6333,18.66,49,0,2.21,AU,1721591634
227,luwuk,-0.9516,122.7875,22.54,91,99,1.93,ID,1721591634
228,cabedelo,-6.9811,-34.8339,27.37,80,13,7.8,BR,1721591634
229,labrador city,52.9463,-66.9114,10.95,77,100,16.09,CA,1721591635
230,el nido,11.1858,119.3956,28.22,76,100,5.7,PH,1721591635
231,la passe,45.5549,-0.8967,19.13,72,96,6.21,FR,1721591635
232,bismarck,46.8083,-100.7837,28.81,51,0,2.57,US,1721591635
233,loa janan,-0.583,117.095,24.15,96,100,1.3,ID,1721591636
234,arraias,-12.9288,-46.9437,28.74,24,61,2.6,BR,1721591636
235,pandan,14.0453,124.1694,26.91,86,100,4.72,PH,1721591636
236,qarqaraly,49.4058,75.4742,15.17,82,7,1.72,KZ,1721591636
237,uruacu,-14.5247,-49.1408,30.3,24,2,2.44,BR,1721591636
238,saldanha,-33.0117,17.9442,9.03,72,22,5.51,ZA,1721591637
239,lazaro cardenas,17.9583,-102.2,29.73,66,87,4.25,MX,1721591637
240,longyearbyen,78.2186,15.6401,8.91,81,75,1.03,SJ,1721591637
241,varash,51.3485,25.8497,19.23,78,100,2.21,UA,1721591637
242,flying fish cove,-10.4217,105.6791,24.82,78,75,6.17,CX,1721591637
243,suchedniow,51.0478,20.8292,23.13,55,97,2.11,PL,1721591638
244,cabo san lucas,22.8909,-109.9124,32.32,61,6,6.62,MX,1721591638
245,zhujiajiao,31.1076,121.057,29.97,87,100,3.83,CN,1721591638
246,gaigeturi,33.4644,126.3183,26.03,94,40,1.54,KR,1721591638
247,general pinedo,-27.3167,-61.2833,22.42,50,24,4.19,AR,1721591638
248,argo,37.6333,22.7333,29.32,45,0,1.19,GR,1721591639
249,balpyk bi,44.8947,78.2083,21.68,39,8,2.54,KZ,1721591639
250,bac lieu,9.285,105.7244,25.99,86,80,4.21,VN,1721591640
251,pahrump,36.2083,-115.9839,41.58,14,6,1.34,US,1721591640
252,aioun,16.6614,-9.6149,36.57,35,27,6.23,MR,1721591640
253,mugla,37.2303,28.3557,25.42,45,0,1.58,TR,1721591640
254,busan,35.1028,129.0403,26.99,89,75,3.09,KR,1721591411
255,balcarce,-37.8462,-58.2552,13.23,45,35,0.89,AR,1721591641
256,kirkland lake,48.1446,-80.0377,22.16,40,51,3.6,CA,1721591362
257,taghazout,30.5426,-9.7112,24.43,75,6,3.72,MA,1721591641
258,hithadhoo,-0.6,73.0833,29.27,73,5,5.88,MV,1721591641
259,catumbela,-12.4314,13.5472,21.07,87,66,1.36,AO,1721591641
260,sittwe,20.15,92.9,27.54,87,100,8.12,MM,1721591642
261,cururupu,-1.8283,-44.8683,28.74,58,19,1.96,BR,1721591642
262,tazacorte,28.629,-17.9293,24.53,80,40,6.69,ES,1721591642
263,forster,-32.1667,152.5167,7.57,79,0,2.77,AU,1721591636
264,duncan,34.5023,-97.9578,31.94,56,97,5.46,US,1721591620
265,lae,-6.7221,146.9847,24.37,90,100,0.44,PG,1721591643
266,itoman,26.1247,127.6694,30.05,82,75,3.09,JP,1721591644
267,kovrov,56.3572,41.3192,15.77,97,79,1.93,RU,1721591644
268,chernyshevsk,52.5243,117.0174,14.76,70,5,2.76,RU,1721591644
269,hola,51.5377,23.1902,21.1,61,76,3.39,PL,1721591644
270,vila franca do campo,37.7167,-25.4333,24.23,76,28,2.45,PT,1721591645
271,hawaiian paradise park,19.5933,-154.9731,26.73,78,100,2.06,US,1721591645
272,gazojak,41.1875,61.4036,32.99,21,61,2.07,TM,1721591645
273,smithers,54.7804,-127.1743,26.18,47,20,2.06,CA,1721591645
274,jumla,29.2747,82.1838,16.59,96,100,1.57,NP,1721591645
275,berwick-upon-tweed,55.7833,-2.0,17.78,82,91,4.84,GB,1721591646
276,wakkanai,45.4094,141.6739,19.92,98,99,12.92,JP,1721591646
277,colonia,50.9333,6.95,22.47,78,20,4.63,DE,1721591532
278,colares,38.7992,-9.4469,21.55,72,20,11.62,PT,1721591646
279,al qubbah,32.7616,22.2424,24.32,59,0,6.56,LY,1721591646
280,spirovo,57.419,34.9766,14.76,98,65,1.43,RU,1721591646
281,sovetskaya gavan',48.9723,140.2878,15.19,99,100,2.23,RU,1721591647
282,as suwayrah,32.9256,44.7758,37.0,15,0,2.61,IQ,1721591647
283,el porvenir,13.7617,-87.3458,29.63,69,100,0.66,HN,1721591647
284,selfoss,63.9331,-20.9971,10.02,70,38,5.44,IS,1721591647
285,neelankarai,12.9455,80.2575,31.07,67,75,5.14,IN,1721591648
286,bamiantong,44.9333,130.5333,19.78,95,99,2.1,CN,1721591648
287,pierre,44.3683,-100.351,27.51,54,40,5.14,US,1721591637
288,luena,-11.7833,19.9167,17.2,25,1,1.55,AO,1721591648
289,afif,23.9065,42.9172,34.18,9,100,8.21,SA,1721591648
290,jinxiang,27.4327,120.6062,26.78,88,89,0.62,CN,1721591649
291,princeville,45.7668,-61.2985,25.36,72,0,3.6,CA,1721591649
292,lekki,6.3607,4.8333,23.53,95,67,1.59,NG,1721591649
293,mahdishahr,35.7108,53.3556,24.8,47,25,4.58,IR,1721591649
294,savalou,7.9281,1.9756,23.47,91,31,2.19,BJ,1721591649
295,ambon,-3.6954,128.1814,27.15,95,75,1.03,ID,1721591650
296,loango,-4.6719,11.8312,20.81,94,20,2.06,CG,1721591650
297,macau,22.2006,113.5461,29.85,89,40,4.63,MO,1721591650
298,aasiaat,68.7098,-52.8699,4.09,93,100,2.31,GL,1721591650
299,adrar,20.5022,-10.0711,39.51,6,100,4.58,MR,1721591650
300,flin flon,54.7682,-101.865,27.91,57,100,4.63,CA,1721591651
301,brisas barra de suchiate,14.55,-92.2167,33.1,71,59,3.26,MX,1721591651
302,pisticci,40.3906,16.5568,27.69,76,4,1.94,IT,1721591651
303,nadi,-17.8,177.4167,21.0,88,20,1.03,FJ,1721591651
304,kil,59.5072,13.314,20.94,73,100,2.06,SE,1721591651
305,okhotsk,59.3833,143.3,11.85,95,100,3.0,RU,1721591652
306,bad munstereifel,50.55,6.7667,20.21,78,25,2.64,DE,1721591652
307,ta`u,-14.2336,-169.5144,26.59,69,83,10.28,AS,1721591652
308,mount gambier,-37.8333,140.7667,11.49,97,69,3.9,AU,1721591652
309,mccomb,31.2438,-90.4531,30.57,77,100,2.35,US,1721591652
310,sain alto,23.5833,-103.25,26.59,33,12,4.82,MX,1721591653
311,guasdualito,7.2424,-70.7324,32.0,62,40,3.09,VE,1721591653
312,codajas,-3.8367,-62.0569,36.23,27,100,1.31,BR,1721591653
313,karratha,-20.7377,116.8463,18.03,27,5,4.65,AU,1721591653
314,taitung city,22.7583,121.1444,27.26,79,85,2.7,TW,1721591654
315,virar,19.4667,72.8,27.05,91,100,8.13,IN,1721591654
316,pemangkat,1.1667,108.9667,26.34,88,100,3.48,ID,1721591654
317,vrangel',42.7297,133.0839,18.9,98,70,1.98,RU,1721591654
318,pleven,43.4167,24.6167,27.97,57,40,1.03,BG,1721591654
319,remire-montjoly,4.9167,-52.2667,28.02,78,0,1.54,GF,1721591655
320,el alto,-4.2714,-81.2147,22.81,70,1,9.45,PE,1721591655
321,qaqortoq,60.7167,-46.0333,7.33,83,13,2.72,GL,1721591655
322,kargasok,59.0556,80.8572,13.14,87,100,3.25,RU,1721591655
323,kamaishi,39.2667,141.8833,23.33,84,76,3.4,JP,1721591656
324,kurumkan,54.3,110.3,21.11,63,46,1.56,RU,1721591656
325,anna regina,7.2644,-58.5077,28.81,72,7,3.3,GY,1721591656
326,cockburn town,21.4612,-71.1419,30.98,79,40,7.2,TC,1721591656
327,tralee,52.2704,-9.7026,15.47,95,100,3.47,IE,1721591408
328,stornoway,58.2093,-6.3865,14.98,75,100,3.09,GB,1721591657
329,xilin hot,43.9667,116.0333,19.1,87,1,1.99,CN,1721591657
330,guiren,33.6697,118.1889,27.85,83,34,3.24,CN,1721591657
331,mutuali,-14.8706,37.0044,19.07,44,16,1.57,MZ,1721591657
332,ghat,24.9647,10.1728,35.35,11,2,4.13,LY,1721591657
333,along,28.1667,94.7667,22.17,99,100,0.58,IN,1721591658
334,chashniki,54.8569,29.1607,16.88,83,57,0.94,BY,1721591658
335,altai,46.3722,96.2583,15.54,56,58,2.8,MN,1721591658
336,saskatoon,52.1168,-106.6345,33.42,36,75,2.57,CA,1721591627
337,sabha,27.0377,14.4283,33.91,19,0,3.56,LY,1721591494
338,jamtara,23.95,86.8,28.02,82,87,3.99,IN,1721591658
339,andergrove,-21.0833,149.1833,8.69,55,0,6.15,AU,1721591659
340,yuzhno-kurilsk,44.0306,145.8556,15.96,98,95,3.65,RU,1721591659
341,kristiansund,63.1115,7.732,19.03,89,75,3.09,NO,1721591659
342,flekkefjord,58.2971,6.6607,19.41,99,100,1.07,NO,1721591659
343,gulf shores,30.246,-87.7008,30.19,85,0,2.06,US,1721591659
344,mantua,45.1667,10.7833,29.53,83,38,2.33,IT,1721591660
345,yinchuan,38.4681,106.2731,28.49,28,5,1.73,CN,1721591660
346,eyl,7.9803,49.8164,25.54,76,48,12.49,SO,1721591660
347,la gi,10.6667,107.7833,24.97,90,100,4.27,VN,1721591660
348,azovo,54.6997,73.0237,16.86,97,63,3.05,RU,1721591661
349,maxixe,-23.8597,35.3472,19.91,88,20,1.54,MZ,1721591661
350,the pas,53.8251,-101.2541,27.01,69,40,2.57,CA,1721591661
351,jiayuguan,39.8167,98.3,24.89,23,0,5.49,CN,1721591661
352,nizhniy odes,63.6445,54.856,10.71,59,23,2.56,RU,1721591661
353,nassau village-ratliff,30.5111,-81.8093,34.44,69,75,6.17,US,1721591662
354,nogliki,51.8333,143.1667,13.28,99,100,2.81,RU,1721591662
355,gurupi,-11.7292,-49.0686,32.03,21,95,3.24,BR,1721591661
356,yeniseysk,58.4497,92.1703,16.95,90,100,0.47,RU,1721591662
357,luanda,-8.8368,13.2343,20.02,88,2,3.9,AO,1721591410
358,torbat-e jam,35.244,60.6225,27.59,20,0,5.25,IR,1721591663
359,sumbawa besar,-8.5,117.4333,20.22,91,75,1.87,ID,1721591663
360,mogocha,53.7333,119.7667,11.84,90,8,1.04,RU,1721591663
361,moussoro,13.6408,16.4901,29.5,60,70,2.62,TD,1721591663
362,santo domingo,18.5001,-69.9886,33.8,64,20,4.12,DO,1721591664
363,magdagachi,53.45,125.8,14.57,96,1,1.72,RU,1721591664
364,port saint john's,-31.6229,29.5448,15.2,68,100,1.67,ZA,1721591664
365,guymon,36.6828,-101.4816,26.0,53,75,4.12,US,1721591664
366,leamington,42.0549,-82.6062,27.99,29,100,4.02,CA,1721591664
367,turaif,31.6725,38.6637,32.14,17,0,3.6,SA,1721591665
368,auki,-8.7676,160.7034,24.71,91,83,1.86,SB,1721591665
369,iskateley,67.6803,53.1512,10.67,63,96,2.03,RU,1721591665
370,lorengau,-2.0226,147.2712,27.42,83,87,4.72,PG,1721591665
371,muromtsevo,56.3724,75.2418,15.58,96,100,3.58,RU,1721591666
372,luau,-10.7073,22.2247,21.13,27,6,1.11,AO,1721591666
373,champerico,14.3,-91.9167,34.3,72,65,2.97,GT,1721591666
374,gursarai,25.6148,79.1788,32.4,56,97,4.98,IN,1721591666
375,polyarnyy,69.1989,33.4478,18.11,67,88,2.43,RU,1721591666
376,novodvinsk,64.4165,40.8122,14.86,63,16,2.0,RU,1721591667
377,yemetsk,63.4721,41.7941,13.16,62,36,2.38,RU,1721591667
378,zvishavane,-20.3267,30.0665,15.11,49,0,1.52,ZW,1721591667
379,namibe,-15.1961,12.1522,17.83,82,97,1.02,AO,1721591667
380,anatuya,-28.4606,-62.8347,19.37,52,21,4.5,AR,1721591667
381,hadibu,12.65,54.0333,26.39,81,100,9.81,YE,1721591623
382,kanniyakumari,8.0833,77.5667,26.03,80,89,6.68,IN,1721591668
383,puerto carreno,6.189,-67.4859,29.99,70,40,2.06,CO,1721591668
384,bangassou,4.7413,22.8184,21.05,94,90,0.61,CF,1721591668
385,pangai,-19.8,-174.35,24.06,83,20,4.63,TO,1721591668
386,alotau,-10.3069,150.4462,22.44,96,90,1.82,PG,1721591669
387,tromso,69.6496,18.957,20.01,64,0,3.09,NO,1721591669
388,puerto maldonado,-12.6,-69.1833,32.22,45,20,2.06,PE,1721591669
389,alba posse,-27.5698,-54.6826,23.65,68,100,0.6,AR,1721591669
390,praia da vitoria,38.7333,-27.0667,25.42,73,75,1.77,PT,1721591670
391,charlottetown,46.2352,-63.1267,24.32,68,75,2.06,CA,1721591670
392,furstenfeld,47.05,16.0833,24.81,69,0,0.92,AT,1721591670
393,lompoc,34.6391,-120.4579,25.08,52,0,5.32,US,1721591665
394,pauini,-7.7136,-66.9764,36.43,22,92,1.53,BR,1721591670
395,maamba,-17.3667,27.15,18.65,32,1,1.34,ZM,1721591670
396,ancud,-41.8697,-73.8203,9.7,80,23,1.09,CL,1721591671
397,chifeng,42.2683,118.9636,23.23,71,100,1.23,CN,1721591671
398,vadso,70.0744,29.7487,24.49,68,0,2.06,NO,1721591671
399,cadale,2.7603,46.3222,24.8,86,100,8.07,SO,1721591671
400,port douglas,-16.4833,145.4667,18.06,72,16,2.76,AU,1721591671
401,anar darah,32.7587,61.654,30.81,16,0,7.15,AF,1721591672
402,alliance,40.9153,-81.1059,28.15,53,100,0.89,US,1721591439
403,tamanrasset,22.785,5.5228,32.95,24,40,3.6,DZ,1721591672
404,gorontalo,0.5412,123.0595,24.96,88,100,2.1,ID,1721591672
405,novobureyskiy,49.798,129.8774,16.84,96,13,1.0,RU,1721591672
406,ratnagiri,16.9833,73.3,26.56,87,100,7.18,IN,1721591673
407,santana,-0.0583,-51.1817,33.1,62,40,2.06,BR,1721591540
408,la ronge,55.1001,-105.2842,23.14,60,75,3.6,CA,1721591673
409,san martin,-33.081,-68.4681,14.3,32,0,1.36,AR,1721591404
410,saint-francois,46.4154,3.9054,19.69,77,0,2.57,FR,1721591673
411,anapolis,-16.3267,-48.9528,26.26,31,0,3.6,BR,1721591632
412,nova sintra,14.8667,-24.7167,25.05,77,0,6.8,CV,1721591674
413,vallam,10.7167,79.0833,30.03,64,100,7.19,IN,1721591674
414,obsharovka,53.125,48.8531,18.05,79,0,2.51,RU,1721591674
415,santa terezinha,-29.9002,-50.0904,16.87,85,100,2.09,BR,1721591674
416,simitli,41.8833,23.1167,29.21,47,83,1.5,BG,1721591675
417,hirara,24.8,125.2833,28.92,89,40,3.09,JP,1721591675
418,saint-philippe,-21.3585,55.7679,20.77,82,35,3.06,RE,1721591436
419,nemuro,43.3236,145.575,16.58,97,34,7.2,JP,1721591675
420,grand falls-windsor,48.9332,-55.6649,25.84,58,100,1.79,CA,1721591675
421,padang,-0.9492,100.3543,26.03,90,48,1.99,ID,1721591676
422,guaruja,-23.9931,-46.2564,18.92,38,75,2.68,BR,1721591676
423,usinsk,65.9939,57.5281,11.56,57,88,3.85,RU,1721591477
424,korla,41.7597,86.1469,30.58,22,100,6.32,CN,1721591676
425,phan thiet,10.9333,108.1,24.53,90,96,3.61,VN,1721591676
426,okha,53.5739,142.9478,13.68,98,100,1.88,RU,1721591677
427,salqin,36.1381,36.4532,27.04,68,0,3.03,SY,1721591677
428,tucuma,-0.1833,-50.05,30.4,63,3,5.26,BR,1721591677
429,san ignacio de velasco,-16.3667,-60.95,33.36,17,0,2.98,BO,1721591677
430,sandnessjoen,66.0217,12.6316,25.06,47,0,4.12,NO,1721591523
431,salekhard,66.53,66.6019,8.97,71,64,5.14,RU,1721591678
432,trujillo,-8.116,-79.03,17.98,77,5,6.17,PE,1721591678
433,cobourg,50.2667,10.9667,21.88,84,31,1.45,DE,1721591678
434,nuriootpa,-34.4833,139.0,7.99,83,0,4.44,AU,1721591678
435,fortaleza,-3.7227,-38.5247,28.07,69,20,7.2,BR,1721591678
436,bogande,12.9714,-0.1436,27.29,72,95,4.13,BF,1721591679
437,st. john's,47.5649,-52.7093,23.66,46,75,8.75,CA,1721591478
438,fort st. john,56.2499,-120.8529,27.94,39,75,5.66,CA,1721591679
439,tyukhtet,56.5389,89.3011,15.88,98,100,1.94,RU,1721591679
440,susangerd,31.5608,48.1831,39.26,12,0,7.01,IR,1721591679
441,kaa-khem,51.6833,94.7333,17.11,90,100,1.62,RU,1721591680
442,ola,59.5833,151.2833,12.85,95,100,1.6,RU,1721591680
443,vecpiebalga,57.0599,25.8127,15.26,92,100,0.89,LV,1721591680
444,nabire,-3.3667,135.4833,23.55,94,100,1.28,ID,1721591680
445,yeppoon,-23.1333,150.7333,6.81,56,0,2.28,AU,1721591680
446,ikongo,-21.8833,47.4333,15.34,89,0,1.26,MG,1721591681
447,al ain city,24.1917,55.7606,35.79,59,6,4.12,AE,1721591681
448,ngama,11.7833,17.1667,28.44,68,100,2.58,TD,1721591681
449,vicuna,-30.0319,-70.7081,14.07,64,0,1.79,CL,1721591681
450,fale old settlement,-9.3852,-171.2468,28.16,68,36,8.25,TK,1721591682
451,laguna,38.421,-121.4238,34.62,34,0,3.09,US,1721591682
452,shingu,33.7333,135.9833,25.51,93,22,2.66,JP,1721591682
453,ginir,7.1333,40.7,16.53,79,65,3.67,ET,1721591673
454,las khorey,11.1595,48.1967,34.59,46,100,5.96,SO,1721591683
455,puerto madero,14.7208,-92.4215,33.11,58,40,3.6,MX,1721591683
456,ulladulla,-35.35,150.4667,7.9,80,4,2.45,AU,1721591683
457,dwarka,22.2394,68.9678,28.21,89,100,7.32,IN,1721591683
458,chania,35.5122,24.0156,28.78,61,0,2.06,GR,1721591683
459,pangody,65.85,74.4859,8.47,64,0,3.49,RU,1721591684
460,severo-yeniseyskiy,60.3725,93.0408,13.74,96,23,1.39,RU,1721591684
461,oltinko'l,40.8011,72.1634,29.87,24,100,2.8,UZ,1721591684
462,kastoria,40.5167,21.2667,23.17,46,8,2.96,GR,1721591684
463,tocopilla,-22.092,-70.1979,17.73,67,13,3.75,CL,1721591685
464,fellsmere,27.7678,-80.6014,33.32,74,0,0.45,US,1721591685
465,caxito,-8.5785,13.6643,19.2,92,9,1.45,AO,1721591685
466,ridgecrest,35.6225,-117.6709,42.6,12,0,2.82,US,1721591455
467,kruisfontein,-34.0033,24.7314,7.71,84,0,2.58,ZA,1721591685
468,ma'an,26.9775,110.7211,25.62,82,100,2.04,CN,1721591685
469,kisesa,-3.0833,34.15,23.89,48,81,2.21,TZ,1721591686
470,srisailain,16.0833,78.8667,22.41,95,100,5.77,IN,1721591686
471,puerto deseado,-47.7503,-65.8938,10.76,60,78,11.06,AR,1721591686
472,suances,43.4334,-4.0434,19.43,68,75,2.57,ES,1721591686
473,rouyn-noranda,48.2398,-79.0288,21.05,46,75,3.09,CA,1721591687
474,crane,31.3974,-102.3501,33.79,30,99,3.76,US,1721591687
475,vredendal,-31.6683,18.5012,11.04,64,0,2.92,ZA,1721591687
476,calvinia,-31.4707,19.776,8.78,40,0,1.47,ZA,1721591687
477,opuwo,-18.0607,13.84,16.59,25,41,1.85,NA,1721591687
478,justo daract,-33.8594,-65.1828,13.56,46,100,2.0,AR,1721591688
479,yanbu,24.0891,38.0637,36.02,14,0,4.63,SA,1721591688
480,i-n-salah,27.1935,2.4607,38.77,9,0,5.59,DZ,1721591688
481,pimentel,-6.8367,-79.9342,21.16,60,0,8.75,PE,1721591688
482,giado,31.9582,12.0203,31.38,21,0,3.24,LY,1721591688
483,posto fiscal rolim de moura,-13.0833,-62.2667,35.14,20,5,0.85,BR,1721591689
484,nelson bay,-32.7167,152.15,8.89,92,0,5.99,AU,1721591689
485,lensk,60.7253,114.9278,17.04,77,17,1.41,RU,1721591689
486,lakatoro,-16.0999,167.4164,24.93,87,27,3.54,VU,1721591689
487,lago da pedra,-4.3333,-45.1667,33.5,29,6,2.4,BR,1721591690
488,atambua,-9.1061,124.8925,17.63,85,5,2.86,ID,1721591690
489,kittila,67.6647,24.8936,22.08,40,0,1.03,FI,1721591690
490,bayanhongor,46.7167,100.1167,8.99,73,0,1.96,MN,1721591690
491,nova vicosa,-17.8919,-39.3719,23.68,65,18,3.69,BR,1721591690
492,brookings,44.3114,-96.7984,27.88,61,40,3.6,US,1721591691
493,kirovsk,48.6375,38.6428,25.28,29,100,1.77,UA,1721591691
494,sungai raya,0.7,108.9,26.21,89,100,3.12,ID,1721591691
495,swakopmund,-22.6833,14.5333,13.32,86,12,1.79,NA,1721591691
496,yerofey pavlovich,53.9667,121.9667,14.39,75,61,1.17,RU,1721591692
497,poso,-1.3959,120.7524,25.68,78,81,2.09,ID,1721591692
498,la romana,18.4273,-68.9728,33.2,55,40,6.17,DO,1721591692
499,barranca,-10.75,-77.7667,18.44,71,14,5.58,PE,1721591692
500,tosontsengel,48.7567,98.2839,10.61,82,6,0.87,MN,1721591692
501,pervomayskoye,43.919,46.7102,24.64,47,5,1.79,RU,1721591693
502,cynthiana,38.3904,-84.2941,30.45,51,100,3.33,US,1721591693
503,paraiso,9.8383,-83.8656,25.48,84,100,2.17,CR,1721591693
504,abbeville,50.1,1.8333,18.47,88,98,5.47,FR,1721591693
505,dakhla,23.6848,-15.958,21.01,88,0,15.43,EH,1721591694
506,loukhi,66.0764,33.0381,11.67,65,49,2.01,RU,1721591694
507,kuanda,56.3161,116.0806,19.48,83,100,0.54,RU,1721591694
508,tabou,4.423,-7.3528,24.21,84,100,4.92,CI,1721591694
509,hailey,43.5196,-114.3153,34.41,14,26,7.24,US,1721591694
510,ashland,40.8167,-82.2665,28.33,47,100,1.18,US,1721591695
511,hamilton,39.1834,-84.5333,28.47,60,0,3.6,US,1721591413
512,bani walid,31.7566,13.9942,29.18,26,0,4.05,LY,1721591695
513,palikir - national government center,6.9248,158.1611,24.41,100,40,0.0,FM,1721591695
514,ighiu,46.15,23.5167,18.87,89,5,2.1,RO,1721591695
515,ghadamis,30.1337,9.5007,36.07,11,0,3.63,LY,1721591696
516,tura,25.5198,90.2201,25.02,93,99,2.66,IN,1721591375
517,carmo do paranaiba,-19.0008,-46.3161,24.31,39,0,3.7,BR,1721591696
518,santa marta de tormes,40.9506,-5.6272,25.01,44,0,0.0,ES,1721591696
519,bodaybo,57.8506,114.1933,18.42,93,95,0.76,RU,1721591696
520,arak,34.0917,49.6892,27.38,19,0,2.13,IR,1721591696
521,jean-rabel,19.8533,-73.1917,32.82,59,18,4.9,HT,1721591697
522,carupano,10.6678,-63.2585,30.23,62,0,5.86,VE,1721591697
523,riorges,46.0418,4.0497,20.84,94,16,2.44,FR,1721591697
524,ust'-ilimsk,58.0006,102.6619,17.0,89,88,1.26,RU,1721591697
525,porto seguro,-16.4497,-39.0647,24.29,78,40,3.09,BR,1721591698
526,ullal,12.8,74.85,26.53,94,100,3.09,IN,1721591698
527,sao joao da barra,-21.6403,-41.0511,25.05,72,0,5.9,BR,1721591698
528,saint-pierre,-21.3393,55.4781,20.82,60,0,3.09,RE,1721591698
529,kiruna,67.8557,20.2251,19.51,42,21,3.6,SE,1721591698
530,sisimiut,66.9395,-53.6735,8.33,66,100,1.93,GL,1721591699
531,ust'-kulom,61.6864,53.6902,11.06,71,30,1.28,RU,1721591699
532,nanning,22.8167,108.3167,26.25,89,100,0.97,CN,1721591699
533,cidreira,-30.1811,-50.2056,17.84,81,100,1.91,BR,1721591699
534,bugul'ma,54.55,52.8,17.09,92,100,0.55,RU,1721591700
535,villa gesell,-37.2639,-56.973,10.59,88,94,3.17,AR,1721591700
536,dudinka,69.4058,86.1778,4.14,81,4,4.91,RU,1721591558
537,yanam,16.7333,82.2167,26.28,84,100,4.27,IN,1721591700
538,puerto san jose,13.9256,-90.8244,32.03,68,20,4.12,GT,1721591700
539,margate,51.3813,1.3862,20.39,64,100,2.96,GB,1721591700
540,antalaha,-14.9003,50.2788,19.98,88,9,2.97,MG,1721591701
541,piti village,13.4626,144.6933,28.03,89,0,2.06,GU,1721591701
542,sumbe,-11.2061,13.8437,19.85,94,26,2.43,AO,1721591701
543,evans,33.5337,-82.1307,31.84,64,100,1.54,US,1721591701
544,illizi,26.4833,8.4667,38.89,11,0,3.96,DZ,1721591702
545,bereznik,62.8551,42.7072,13.36,63,14,2.19,RU,1721591702
546,taroa,8.7058,171.2275,28.03,80,66,5.42,MH,1721591702
547,dunedin,-45.8742,170.5036,7.67,77,100,7.15,NZ,1721591410
548,santiago de cao,-7.9589,-79.2392,18.07,77,7,6.17,PE,1721591703
549,kerimaki,61.9167,29.2833,16.97,94,0,0.51,FI,1721591703
550,ketchikan,55.3422,-131.6461,18.52,72,100,3.6,US,1721591703
551,manali,13.1667,80.2667,31.09,67,100,0.89,IN,1721591704
552,ishigaki,24.3448,124.1572,29.07,89,20,5.14,JP,1721591704
553,mattoon,39.4831,-88.3728,26.46,61,99,2.22,US,1721591704
554,mar del plata,-38.0023,-57.5575,10.53,77,95,3.13,AR,1721591704
555,calca,-13.3333,-71.95,20.64,36,3,5.17,PE,1721591704
556,shagonar,51.5333,92.8,15.15,90,98,1.81,RU,1721591705
557,starke,29.9441,-82.1098,35.47,52,100,0.0,US,1721591705
558,iquique,-20.2208,-70.1431,18.02,76,0,3.62,CL,1721591510
559,keren,15.7778,38.4581,24.26,70,100,2.13,ER,1721591705
560,tebessa,35.4042,8.1242,33.6,17,20,3.6,DZ,1721591705
561,chinde,26.8212,87.7095,24.98,91,100,1.54,NP,1721591706
562,tidjikja,18.5564,-11.4271,34.89,33,95,7.26,MR,1721591521
563,pacific grove,36.6177,-121.9166,22.79,80,100,4.12,US,1721591706
564,hadithah,34.1397,42.3781,35.9,22,0,6.33,IQ,1721591707
565,amahai,-3.3333,128.9167,24.46,87,100,3.76,ID,1721591707
566,nuku'alofa,-21.1333,-175.2,23.19,94,20,4.12,TO,1721591299
567,leninskoye,41.7589,69.3864,23.14,34,0,3.14,KZ,1721591707
568,languyan,5.2618,120.0807,26.14,92,97,2.6,PH,1721591707
569,san andres,12.5847,-81.7006,32.01,70,20,5.14,CO,1721591440
570,surgut,61.25,73.4167,14.1,62,0,3.0,RU,1721591708
571,hoa binh,20.8133,105.3383,24.87,94,100,0.97,VN,1721591708
572,serdar,38.9764,56.2757,29.98,43,29,7.83,TM,1721591708
573,mytilene,39.11,26.5547,28.9,65,0,0.0,GR,1721591709
574,siran,40.1894,39.1267,17.47,75,0,2.14,TR,1721591709
575,solnechnyy,50.7214,136.6319,15.83,99,100,2.54,RU,1721591709
576,moquegua,-17.1956,-70.9353,21.15,33,0,3.88,PE,1721591709
577,klaksvik,62.2266,-6.589,11.51,86,52,9.91,FO,1721591709
578,rio verde de mato grosso,-18.9181,-54.8442,32.19,15,0,2.5,BR,1721591710
579,san jose del guaviare,2.5729,-72.6459,23.93,86,99,1.65,CO,1721591710
580,horta,38.5333,-28.6333,24.8,83,20,3.6,PT,1721591328
581,neunkirchen,49.35,7.1833,22.4,68,0,2.57,DE,1721591710
582,tamiahua,21.2667,-97.45,29.48,70,92,3.82,MX,1721591710
583,northam,51.0333,-4.2167,16.88,83,55,5.73,GB,1721591711
584,banjarmasin,-3.3244,114.591,26.08,94,90,0.95,ID,1721591711
585,okakarara,-20.5833,17.4333,16.25,16,71,4.42,NA,1721591711
